{
  "서울": [
    {
      "name": "경복궁",
      "description": "조선 왕조의 법궁으로, 1395년에 처음 건립되었다. 국보 1호로 지정되어 있다.",
      "address": "서울특별시 종로구 사직로 161",
      "cost": "3,000원",
      "image": "seoul_1.png",
      "lat": 37.578869,
      "logt": 126.976955
    },
    {
      "name": "남산서울타워",
      "description": "서울의 대표적인 랜드마크로, 전망대에서는 서울시내 전경을 바라볼 수 있다.",
      "address": "서울특별시 용산구 남산공원길 105",
      "cost": "10,000원",
      "image": "seoul_2.png",
      "lat": 37.550983,
      "logt": 126.988216
    },
    {
      "name": "북촌한옥마을",
      "description": "한국 전통 가옥이 보존되어 있는 마을로, 돌담길과 한옥들이 조화를 이루어 전통적인 분위기를 느낄 수 있다.",
      "address": "서울특별시 종로구 자하문로 5길 37",
      "cost": "무료",
      "image": "seoul_3.png",
      "lat": 37.581373,
      "logt": 126.984924
    },
    {
      "name": "국립중앙박물관",
      "description": "한국의 역사와 문화를 다루는 박물관으로, 고고학, 민속학, 미술 등 다양한 분야의 전시물이 있다.",
      "address": "서울특별시 용산구 서빙고로 137",
      "cost": "무료",
      "image": "seoul_4.png",
      "lat": 37.523515,
      "logt": 126.979434
    },
    {
      "name": "청계천",
      "description": "서울의 중심가를 가로지르는 천으로, 야경이 아름다운 대표적인 명소이다. 봄과 가을에는 청계천에서 불꽃놀이 대회가 열린다.",
      "address": "서울특별시 종로구 청계천로",
      "cost": "무료",
      "image": "seoul_5.png",
      "lat": 37.569128,
      "logt": 126.978754
    }
  ],
  "부산": [
    {
      "name": "해동용궁사",
      "description": "부산의 대표적인 사찰로, 해운대 해안에서 가장 높은 산인 구남산의 정상에 위치하고 있습니다. 사찰 내부에는 다양한 유물과 문화재가 보관되어 있으며, 해운대의 아름다운 전경을 감상할 수 있습니다.",
      "address": "부산광역시 해운대구 우동 137-20",
      "cost": "무료",
      "image": "busan_1.png"
    },
    {
      "name": "부산 국제시장",
      "description": "부산의 대표적인 전통 시장으로, 약 4,000개 이상의 상인들이 모여 다양한 상품을 판매하고 있습니다. 해물류와 국산 건강식품 등이 유명합니다.",
      "address": "부산광역시 중구 부평동1가 25-14",
      "cost": "무료",
      "image": "busan_2.png"
    },
    {
      "name": "태종대",
      "description": "부산의 대표적인 관광지로, 대한민국 전쟁에서의 태종대 포위전투에서 이름을 얻었습니다. 해운대와 광안리 해수욕장, 송정해수욕장 등의 아름다운 경관을 감상할 수 있습니다.",
      "address": "부산광역시 우동 36-1",
      "cost": "성인 4,000원, 청소년 2,500원, 어린이 1,500원",
      "image": "busan_3.png"
    },
    {
      "name": "용두산공원",
      "description": "부산의 대표적인 공원으로, 부산항과 국제시장을 한 눈에 볼 수 있는 곳입니다. 꽃보다 구름, 풍경보다 풍류를 추구하는 부산시민들의 대표적인 휴식 공간입니다.",
      "address": "부산광역시 중구 영주동 49-6",
      "cost": "무료",
      "image": "busan_4.png"
    },
    {
      "name": "부산국제영화제",
      "description": "아시아 최대의 영화 축제 중 하나로, 매년 10월 말부터 11월 초까지 열립니다. 다양한 나라와 장르의 영화를 상영하며, 해외 감독과 배우들도 참여합니다.",
      "address": "부산광역시 해운대구 우동 1402",
      "cost": "티켓 가격은 다양합니다.",
      "image": "busan_5.png"
    }
  ],
  "제주": [
    {
      "name": "성산일출봉",
      "description": "제주도에서 가장 아름다운 일출을 볼 수 있는 곳으로, 화산활동으로 형성된 특이한 지형과 아름다운 바다 전경이 유명합니다. 해발 180m의 높이에 위치해 있고, 일출 시간에는 많은 관광객이 찾습니다.",
      "address": "제주특별자치도 서귀포시 성산읍 일출로 284-12",
      "cost": "성인 5,000원, 청소년 4,000원, 어린이 3,000원",
      "image": "jeju_1.png"
    },
    {
      "name": "제주 도립 박물관",
      "description": "제주의 역사와 문화, 천연기념물 등을 전시하고 있는 박물관입니다. 제주 도민들의 생활습관과 문화유산을 배울 수 있습니다. 삼나무숲과 미술관 등의 부대시설이 함께 있습니다.",
      "address": "제주특별자치도 제주시 한림읍 서비로 300",
      "cost": "성인 1,000원, 청소년 600원, 어린이 400원",
      "image": "jeju_2.png"
    },
    {
      "name": "한라산 국립공원",
      "description": "한라산은 대한민국 최고봉으로, 제주의 신앙과 문화, 역사 등의 중요한 역할을 담당하고 있습니다. 여러 산책로와 등산로가 마련되어 있으며, 다양한 식물과 동물을 볼 수 있습니다.",
      "address": "제주특별자치도 제주시 조천읍 한라산로 2079-61",
      "cost": "무료",
      "image": "jeju_3.png"
    },
    {
      "name": "제주 삼다수 본사",
      "description": "제주의 대표적인 생수 브랜드 중 하나인 삼다수의 공장 겸 체험관입니다. 체험 프로그램과 공장 내부 관광, 삼다수 맛보기 등을 할 수 있습니다.",
      "address": "제주특별자치도 제주시 연동 301-5",
      "cost": "성인 5,000원, 청소년 4,000원, 어린이 3,000원",
      "image": "jeju_4.png"
    },
    {
      "name": "제주 추사관",
      "description": "제주의 추사들의 문화와 역사를 전시하는 박물관입니다. 제주의 역사와 문화를 살펴볼 수 있으며, 제주의 전통적인 가옥과 각종 생활용품 등을 볼 수 있습니다.",
      "address": "제주특별자치도 제주시 조천읍 일주동로 8399",
      "cost": "성인 1,000원, 청소년 500원, 어린이 300원",
      "image": "jeju_5.png"
    }
  ],
  "인천": [
    {
      "name": "인천 차이나타운",
      "description": "중국 문화와 요리 등을 체험할 수 있는 곳으로, 중국 전통 건축물과 골목길, 먹거리와 소품 등이 있습니다.",
      "address": "인천광역시 중구 차이나타운로 51",
      "cost": "무료",
      "image": "incheon_1.png"
    },
    {
      "name": "인천 차이나타운 연꽃호수공원",
      "description": "연못과 연꽃, 중국식정원 등이 조성된 공원으로, 차이나타운과 인접해 있습니다.",
      "address": "인천광역시 중구 차이나타운로 76",
      "cost": "무료",
      "image": "incheon_2.png"
    },
    {
      "name": "인천 대교 테마파크",
      "description": "미니어처 대교와 함께 인천 대교를 둘러싼 파노라마 뷰를 감상할 수 있는 테마파크입니다.",
      "address": "인천광역시 연수구 아트센터대로 165",
      "cost": "성인 12,000원 / 어린이 10,000원",
      "image": "incheon_3.png"
    },
    {
      "name": "월미도 레저포레스트",
      "description": "수상 스포츠, ATV, 대자연과 함께하는 캠핑 등 다양한 레저 활동을 즐길 수 있는 장소입니다.",
      "address": "인천광역시 남동구 소래역로 129번길 60",
      "cost": "활동마다 가격이 다름",
      "image": "incheon_4.png"
    },
    {
      "name": "인천 차이나타운 인접 증명사",
      "description": "조선시대에 지어진 대한민국 최초의 사찰 중 하나로, 우리나라 불교문화의 보고입니다.",
      "address": "인천광역시 중구 영종동 424-1",
      "cost": "성인 3,000원 / 청소년 2,000원 / 어린이 1,000원",
      "image": "incheon_5.png"
    }
  ],
  "경주": [
    {
      "name": "불국사",
      "description": "고구려 백제 시대의 문화재이며 대한민국의 유산 중 하나로, 대한민국의 대표적인 사찰 중 하나입니다. 석조로 조각된 대불과 작은불, 그리고 조상들의 지면비와 함께 아름다운 숲길을 따라 둘러볼 수 있습니다.",
      "address": "경상북도 경주시 진혁로 487",
      "cost": "3,000원",
      "image": "gyeongju_1.png"
    },
    {
      "name": "안압지",
      "description": "경주의 대표적인 자연경관 중 하나로, 석굴암과 함께 세계문화유산으로 지정되어 있습니다. 벽화전과 관음보살좌상이 유명합니다. 봄이면 벚꽃 명소로도 유명합니다.",
      "address": "경상북도 경주시 진성면 안압지로 119",
      "cost": "2,000원",
      "image": "gyeongju_2.png"
    },
    {
      "name": "경주 석굴암",
      "description": "대한민국의 대표적인 사찰 중 하나로 석굴암은 신라시대에 지어진 유서 깊은 사찰입니다. 아름다운 자연환경과 함께 석굴암 내부의 거대한 각인조각과 관음보살좌상을 감상할 수 있습니다.",
      "address": "경상북도 경주시 칠교동 산23-1",
      "cost": "4,000원",
      "image": "gyeongju_3.png"
    },
    {
      "name": "첨성대",
      "description": "신라 시대의 천년고도인 첨성대는 동아시아에서 가장 오래된 천문대 중 하나로, 하늘의 현상을 관찰하고 연구하는 곳입니다. 362개의 기둥과 12층으로 이루어져 있습니다.",
      "address": "경상북도 경주시 보문로 170",
      "cost": "1,500원",
      "image": "gyeongju_4.png"
    },
    {
      "name": "대릉원",
      "description": "동호동 삼국시대 유적지로, 신라 시대부터 조선 시대까지 23대 왕과 왕비, 30여 명의 귀족 등이 안장된 곳입니다. 아름다운 자연환경과 함께 한국 역사와 문화를 느낄 수 있습니다.",
      "address": "경상북도 경주시 동천동 산1-1",
      "cost": "2,000원",
      "image": "gyeongju_5.png"
    }
  ],
  "안동": [
    {
      "name": "하회마을",
      "description": "하회마을은 한옥이 잘 보존되어 있는 전통 한국 마을입니다. 길가에 노인분들이 앉아 계시면서 한국 전통 악기인 가야금, 풍물 등을 연주하시는 모습도 볼 수 있습니다.",
      "address": "경상북도 안동시 하회동",
      "cost": "무료",
      "image": "andong_1.png"
    },
    {
      "name": "안동하회문화관",
      "description": "안동하회문화관은 하회마을에 위치해 있는 한옥 건물로, 안동의 역사와 전통문화를 전시하고 있습니다. 전시관 내부에서는 안동의 역사와 문화 유산을 보실 수 있습니다.",
      "address": "경상북도 안동시 하회동 86-1",
      "cost": "2000원",
      "image": "andong_2.png"
    },
    {
      "name": "안동난타",
      "description": "안동 난타는 안동에서 오래된 전통 공연으로, 난타를 연출하며 전통 음악과 춤도 함께 선보입니다. 안동시민들뿐만 아니라 외국인 관광객들에게도 인기가 있습니다.",
      "address": "경상북도 안동시 안동5길 6-1",
      "cost": "20000원",
      "image": "andong_3.png"
    },
    {
      "name": "안동허씨문화관",
      "description": "안동허씨문화관은 안동의 대표적인 명문 가문인 허씨 가문의 역사와 문화 유산을 보관하고 전시하는 박물관입니다.",
      "address": "경상북도 안동시 문화1길 10",
      "cost": "3000원",
      "image": "andong_4.png"
    },
    {
      "name": "안동북문교",
      "description": "안동북문교는 안동에 있는 가장 유명한 다리 중 하나입니다. 전체적으로 아름다운 경치를 자랑하며, 다리 위에서 안동의 멋진 풍경을 감상할 수 있습니다.",
      "address": "경상북도 안동시 북문길 41",
      "cost": "무료",
      "image": "andong_5.png"
    }
  ],
  "강릉": [
    {
      "name": "정동진 해변",
      "description": "바다와 산을 배경으로 한 경치가 아름다운 해변으로, 국내 최초로 '블루플래그'인 국제 해변 수준을 인증받았습니다. 또한 철도를 따라 바닷가로 이어지는 '정동진 철길 분기점'이 있는 곳으로도 유명합니다.",
      "address": "강원도 강릉시 정동진읍 정동역길 11",
      "cost": "무료",
      "image": "gangneung_1.png"
    },
    {
      "name": "강릉 경포해변",
      "description": "황금빛 모래사장과 아름다운 일출을 보며 산책하는 것을 즐길 수 있는 해변입니다. 맑은 바다와 도시의 조화로운 뷰가 눈에 잘 들어옵니다. 국내 여행자뿐만 아니라 외국인 관광객들도 인기있는 관광지 중 하나입니다.",
      "address": "강원도 강릉시 강동면 해안로 1149",
      "cost": "무료",
      "image": "gangneung_2.png"
    },
    {
      "name": "경포대",
      "description": "경포해변에 위치한 곳으로, 해안 절경과 경포대 북쪽 해안선 경치, 남쪽 해안선의 아름다운 경치를 볼 수 있는 전망대입니다. 경포해변과 함께 여행객들이 많이 찾는 곳 중 하나입니다.",
      "address": "강원도 강릉시 강동면 경포로 202",
      "cost": "무료",
      "image": "gangneung_3.png"
    },
    {
      "name": "강릉 오죽헌",
      "description": "조선시대 유명한 문인 오진의 벽화와 다양한 석조물, 나무조각물, 도자기 등이 전시되어 있는 문화재 입니다. 오죽헌과 그 주변은 단풍이 아름답기로도 유명하며, 매년 많은 관광객들이 방문합니다.",
      "address": "강원도 강릉시 연곡면 오죽헌길 70",
      "cost": "성인 3,000원 / 청소년 2,000원 / 어린이 1,000원",
      "image": "gangneung_4.png"
    },
    {
      "name": "선교장",
      "description": "강릉의 동백호 호수 주변에 자리하고 있는 오래된 목조 건물입니다. 전통적인 한국 가옥 양식을 보여주며, 한국 전통문화와 자연경관의 아름다움을 동시에 느낄 수 있습니다.",
      "address": "강원도 강릉시 연곡면 하조대길 261",
      "cost": "성인 4,000원 / 청소년 2,000원 / 어린이 1,500원",
      "image": "gangneung_5.png"
    }
  ],
  "춘천": [
    {
      "name": "남이섬",
      "description": "조선시대 고려지방 효도영주였던 박씨 일가의 별장지였으며, 유기적으로 자라는 나무와 자연스러운 경관이 조화롭게 어우러져 아름다운 풍광을 자랑합니다.",
      "address": "강원도 춘천시 남산면 남이섬길 1",
      "price": "만원 이하",
      "image": "chuncheon_1.png"
    },
    {
      "name": "강원랜드",
      "description": "강원도 첫 번째 카지노로, 주거나 상업지역으로는 인근에 없어 이곳을 찾는 관광객들이 많습니다. 또한 놀이기구와 워터파크 등 다양한 즐길거리를 제공합니다.",
      "address": "강원도 정선군 이평면 강원랜드로 300",
      "price": "주말 기준 5만원 이하",
      "image": "chuncheon_2.png"
    },
    {
      "name": "솔나무 숲길",
      "description": "청량한 공기와 맑은 계곡물을 느끼며, 솔과 자작나무가 무성한 산책길입니다. 정문부터 정상까지 이어지는 길은 산행 코스로도 인기가 많습니다.",
      "address": "강원도 춘천시 남산면 수레길 119-4",
      "price": "무료",
      "image": "chuncheon_3.png"
    },
    {
      "name": "남이섬 세계음식전시관",
      "description": "전세계 음식을 한자리에서 즐길 수 있는 테마파크로, 다양한 나라의 음식, 문화, 건축 등을 볼 수 있습니다.",
      "address": "강원도 춘천시 남산면 남이섬길 1",
      "price": "성인 12,000원, 청소년 9,000원, 어린이 7,000원",
      "image": "chuncheon_4.png"
    },
    {
      "name": "김유정 문학관",
      "description": "작가 김유정의 생애와 문학을 전시하고 있는 박물관입니다. 관내에는 작가의 묘와 김유정의 유서가 전시되어 있습니다.",
      "address": "강원도 춘천시 교동 102번지",
      "price": "성인 2,000원, 청소년 1,000원, 어린이 무료",
      "image": "chuncheon_5.png"
    }
  ],
  "전주": [
    {
      "name": "전주한옥마을",
      "description": "전주의 대표적인 관광지로, 전통적인 한옥들이 멋스럽게 늘어서 있는 마을입니다. 한옥마을 안에는 전통시장과 전통문화관광특구가 위치해 있어 전통문화를 즐길 수 있습니다.",
      "address": "전라북도 전주시 완산구 풍남동3가, 완산로 117",
      "cost": "무료",
      "image": "jeonju_1.png"
    },
    {
      "name": "전주 향교",
      "description": "전주의 대표적인 문화유산인 향교입니다. 향교는 고려 시대에 축조된 것으로, 성균관과 함께 조선 시대 교육의 중심지였습니다. ",
      "address": "전라북도 전주시 완산구 교동 3-2",
      "cost": "성인 1,000원 / 청소년 700원 / 어린이 500원",
      "image": "jeonju_2.png"
    },
    {
      "name": "전주 동호로",
      "description": "전주의 대표적인 쇼핑과 음식 문화가 모두 느껴지는 곳입니다. 동호로에는 다양한 가게와 음식점이 위치해 있으며, 전통적인 한옥 건물들이 아름답습니다.",
      "address": "전라북도 전주시 완산구 중앙동3가",
      "cost": "무료",
      "image": "jeonju_3.png"
    },
    {
      "name": "전주 한지문화축제",
      "description": "전주에서 매년 5월 말부터 6월 초까지 열리는 축제로, 전주의 전통적인 종이인 한지를 이용한 다양한 문화행사가 열립니다.",
      "address": "전라북도 전주시 완산구 전동 3-3",
      "cost": "무료(일부 체험 프로그램 제외)",
      "image": "jeonju_4.png"
    },
    {
      "name": "전주 덕진궁",
      "description": "조선 왕조시대의 궁궐 중 하나로, 전주 지역에서 유일하게 남아 있는 궁궐입니다. 궁궐 안에는 역사적인 건축물들과 궁중음식 전문점 등이 위치해 있습니다.",
      "address": "전라북도 전주시 덕진구 인후동 3-1",
      "cost": "성인 3,000원",
      "image": "jeonju_5.png"
    }
  ],
  "여수": [
    {
      "name": "여수케이블카",
      "description": "여수 밤바다의 멋진 야경을 볼 수 있는 케이블카",
      "address": "전라남도 여수시 돌산읍 송산리 케이블카로 12",
      "cost": "성인 12,000원 / 어린이 8,000원",
      "image": "yeosu_1.png"
    },
    {
      "name": "여수밤바다축제",
      "description": "5월부터 8월까지 진행되는 여수의 대표적인 축제",
      "address": "전라남도 여수시 여문1길 100",
      "cost": "무료",
      "image": "yeosu_2.png"
    },
    {
      "name": "오동도",
      "description": "여수의 대표적인 자연 경관과 전망을 즐길 수 있는 섬",
      "address": "전라남도 여수시 오동도",
      "cost": "섬 입장료 성인 2,500원 / 어린이 1,500원",
      "image": "yeosu_3.png"
    },
    {
      "name": "여수해상케이블카",
      "description": "여수 항구와 여수만을 한눈에 볼 수 있는 해상 케이블카",
      "address": "전라남도 여수시 국동 1531-16",
      "cost": "성인 15,000원 / 어린이 12,000원",
      "image": "yeosu_4.png"
    },
    {
      "name": "한려수도 자연휴양림",
      "description": "한라산의 연장선상에 위치한 조용하고 아름다운 휴양지",
      "address": "전라남도 여수시 국동 1526-1",
      "cost": "입장료 성인 2,000원 / 어린이 1,000원",
      "image": "yeosu_5.png"
    }
  ]
}
